[{"listing_id": "32678719", "url": "https://www.airbnb.com/rooms/32678719", "price": 96.0, "bathrooms": 1.0, "bedrooms": 1, "is_superhost": false, "lat": 40.758762, "lng": -73.988464, "localized_city": "New York", "listing_name": "Enjoy great views of the City in our Deluxe Room!", "person_capacity": 2, "reviews_count": 409, "room_type_category": "hotel_room", "can_instant_book": true, "min_nights": 1, "max_nights": 1125, "months": 7},
{"listing_id": "21282152", "url": "https://www.airbnb.com/rooms/21282152", "price": 33.0, "bathrooms": 2.0, "bedrooms": 1, "is_superhost": false, "lat": 40.70031, "lng": -73.90828, "localized_city": "Queens", "listing_name": "Pop House 4min walk to L train 12mins to Manhattan", "person_capacity": 4, "reviews_count": 112, "room_type_category": "private_room", "can_instant_book": true, "min_nights": 1, "max_nights": 25, "months": 16},
{"listing_id": "36732625", "url": "https://www.airbnb.com/rooms/36732625", "price": 91.0, "bathrooms": 1.0, "bedrooms": 1, "is_superhost": true, "lat": 40.7664, "lng": -73.98808, "localized_city": "New York", "listing_name": "Fantastic NYC 2 Bed, corner of Central Park! \u2605\u2605\u2605\u2605\u2605", "person_capacity": 4, "reviews_count": 3, "room_type_category": "entire_home", "can_instant_book": false, "min_nights": 180, "max_nights": 1125, "months": 0},
{"listing_id": "20685563", "url": "https://www.airbnb.com/rooms/20685563", "price": 53.0, "bathrooms": 1.0, "bedrooms": 2, "is_superhost": true, "lat": 40.681732, "lng": -73.89518, "localized_city": "Brooklyn", "listing_name": "Bright & Airy in Highland Park", "person_capacity": 3, "reviews_count": 40, "room_type_category": "entire_home", "can_instant_book": true, "min_nights": 30, "max_nights": 180, "months": 24},
{"listing_id": "27678634", "url": "https://www.airbnb.com/rooms/27678634", "price": 20.0, "bathrooms": 1.0, "bedrooms": 1, "is_superhost": false, "lat": 40.66872, "lng": -73.95343, "localized_city": "Brooklyn", "listing_name": "Brooklyn Chill & Explore", "person_capacity": 2, "reviews_count": 89, "room_type_category": "private_room", "can_instant_book": true, "min_nights": 2, "max_nights": 25, "months": 15},
{"listing_id": "834190", "url": "https://www.airbnb.com/rooms/834190", "price": 158.0, "bathrooms": 1.0, "bedrooms": 1, "is_superhost": true, "lat": 40.71921, "lng": -73.99116, "localized_city": "New York", "listing_name": "Manhattan Lux Loft.Like.Love.Lots.Look !", "person_capacity": 5, "reviews_count": 581, "room_type_category": "private_room", "can_instant_book": true, "min_nights": 1, "max_nights": 29, "months": 81},
{"listing_id": "1066769", "url": "https://www.airbnb.com/rooms/1066769", "price": 45.0, "bathrooms": 1.0, "bedrooms": 1, "is_superhost": true, "lat": 40.72046, "lng": -73.98773, "localized_city": "New York", "listing_name": "Clean Room, Central Location in Manhattan", "person_capacity": 2, "reviews_count": 400, "room_type_category": "private_room", "can_instant_book": true, "min_nights": 1, "max_nights": 21, "months": 75},
{"listing_id": "32317602", "url": "https://www.airbnb.com/rooms/32317602", "price": 124.0, "bathrooms": 1.0, "bedrooms": 2, "is_superhost": false, "lat": 40.76262, "lng": -73.98865, "localized_city": "New York", "listing_name": "LARGE 2 Bedroom Midtown Manhattan Apartment!", "person_capacity": 4, "reviews_count": 18, "room_type_category": "entire_home", "can_instant_book": true, "min_nights": 1, "max_nights": 1125, "months": 6},
{"listing_id": "903972", "url": "https://www.airbnb.com/rooms/903972", "price": 45.0, "bathrooms": 1.0, "bedrooms": 1, "is_superhost": false, "lat": 40.82085, "lng": -73.94025, "localized_city": "New York", "listing_name": "Great Bedroom in Manhattan", "person_capacity": 2, "reviews_count": 639, "room_type_category": "private_room", "can_instant_book": true, "min_nights": 1, "max_nights": 28, "months": 79},
{"listing_id": "1583556", "url": "https://www.airbnb.com/rooms/1583556", "price": 89.0, "bathrooms": 1.0, "bedrooms": 1, "is_superhost": true, "lat": 40.72096, "lng": -74.07383, "localized_city": "Jersey City", "listing_name": "Exposed Brick Brownstone Apt!", "person_capacity": 2, "reviews_count": 181, "room_type_category": "entire_home", "can_instant_book": true, "min_nights": 2, "max_nights": 1125, "months": 67},
{"listing_id": "3798941", "url": "https://www.airbnb.com/rooms/3798941", "price": 50.0, "bathrooms": 1.0, "bedrooms": 1, "is_superhost": false, "lat": 40.711327, "lng": -73.953575, "localized_city": "Brooklyn", "listing_name": "Williamsburg Penthouse Guestroom", "person_capacity": 2, "reviews_count": 421, "room_type_category": "private_room", "can_instant_book": true, "min_nights": 1, "max_nights": 5, "months": 59},
{"listing_id": "779561", "url": "https://www.airbnb.com/rooms/779561", "price": 105.0, "bathrooms": 1.0, "bedrooms": 1, "is_superhost": false, "lat": 40.73652, "lng": -74.00876, "localized_city": "New York", "listing_name": "FULLY Furnished Studio \u2665 Manhattan", "person_capacity": 2, "reviews_count": 21, "room_type_category": "entire_home", "can_instant_book": true, "min_nights": 30, "max_nights": 365, "months": 63},
{"listing_id": "16580", "url": "https://www.airbnb.com/rooms/16580", "price": 69.0, "bathrooms": 1.0, "bedrooms": 1, "is_superhost": true, "lat": 40.72649, "lng": -73.97904, "localized_city": "New York", "listing_name": "Sunny, Modern room in East Village!", "person_capacity": 1, "reviews_count": 380, "room_type_category": "private_room", "can_instant_book": true, "min_nights": 1, "max_nights": 60, "months": 61},
{"listing_id": "4750486", "url": "https://www.airbnb.com/rooms/4750486", "price": 50.0, "bathrooms": 1.0, "bedrooms": 1, "is_superhost": false, "lat": 40.79774, "lng": -73.93244, "localized_city": "New York", "listing_name": "Sun-drenched 1BD in Upper East Side", "person_capacity": 2, "reviews_count": 281, "room_type_category": "private_room", "can_instant_book": false, "min_nights": 2, "max_nights": 1125, "months": 57},
{"listing_id": "17157306", "url": "https://www.airbnb.com/rooms/17157306", "price": 29.0, "bathrooms": 1.0, "bedrooms": 1, "is_superhost": false, "lat": 40.73802, "lng": -74.05699, "localized_city": "Jersey City", "listing_name": "Modern Room 20 Minutes to Times Square", "person_capacity": 2, "reviews_count": 173, "room_type_category": "private_room", "can_instant_book": true, "min_nights": 1, "max_nights": 1125, "months": 30},
{"listing_id": "15718486", "url": "https://www.airbnb.com/rooms/15718486", "price": 97.0, "bathrooms": 1.0, "bedrooms": 1, "is_superhost": false, "lat": 40.75376, "lng": -74.02635, "localized_city": "Hoboken", "listing_name": "Uptown Chic in Hoboken", "person_capacity": 2, "reviews_count": 187, "room_type_category": "entire_home", "can_instant_book": true, "min_nights": 2, "max_nights": 1125, "months": 30},
{"listing_id": "3585452", "url": "https://www.airbnb.com/rooms/3585452", "price": 91.0, "bathrooms": 1.0, "bedrooms": 0, "is_superhost": false, "lat": 40.809, "lng": -73.94263, "localized_city": "New York", "listing_name": "A Beautiful Brownstone Apartment", "person_capacity": 4, "reviews_count": 321, "room_type_category": "entire_home", "can_instant_book": true, "min_nights": 2, "max_nights": 30, "months": 63},
{"listing_id": "31221559", "url": "https://www.airbnb.com/rooms/31221559", "price": 67.0, "bathrooms": 1.0, "bedrooms": 1, "is_superhost": true, "lat": 40.64445, "lng": -73.94943, "localized_city": "Brooklyn", "listing_name": "Flatbush Hideaway - Quiet and close to subway!", "person_capacity": 4, "reviews_count": 52, "room_type_category": "entire_home", "can_instant_book": true, "min_nights": 2, "max_nights": 14, "months": 11},
{"listing_id": "27584413", "url": "https://www.airbnb.com/rooms/27584413", "price": 59.0, "bathrooms": 1.0, "bedrooms": 0, "is_superhost": true, "lat": 40.73469, "lng": -73.85426, "localized_city": "Queens", "listing_name": "Chic Designer Home Guest Studio", "person_capacity": 2, "reviews_count": 92, "room_type_category": "entire_home", "can_instant_book": true, "min_nights": 2, "max_nights": 1125, "months": 12},
{"listing_id": "31711274", "url": "https://www.airbnb.com/rooms/31711274", "price": 65.0, "bathrooms": 1.0, "bedrooms": 1, "is_superhost": true, "lat": 40.6354, "lng": -73.90039, "localized_city": "Brooklyn", "listing_name": "Contemporary, Cozy  Retreat", "person_capacity": 2, "reviews_count": 77, "room_type_category": "entire_home", "can_instant_book": true, "min_nights": 2, "max_nights": 1125, "months": 9},
{"listing_id": "565677", "url": "https://www.airbnb.com/rooms/565677", "price": 49.0, "bathrooms": 1.0, "bedrooms": 1, "is_superhost": true, "lat": 40.72137, "lng": -74.04642, "localized_city": "Jersey City", "listing_name": "LARGE SUNNY ROOM 15 MIN to NYC !", "person_capacity": 2, "reviews_count": 339, "room_type_category": "private_room", "can_instant_book": true, "min_nights": 2, "max_nights": 30, "months": 81},
{"listing_id": "32678720", "url": "https://www.airbnb.com/rooms/32678720", "price": 89.0, "bathrooms": 1.0, "bedrooms": 1, "is_superhost": false, "lat": 40.758762, "lng": -73.988464, "localized_city": "New York", "listing_name": "Great Room in the heart of Times Square!", "person_capacity": 2, "reviews_count": 225, "room_type_category": "hotel_room", "can_instant_book": true, "min_nights": 1, "max_nights": 1125, "months": 8},
{"listing_id": "593292", "url": "https://www.airbnb.com/rooms/593292", "price": 150.0, "bathrooms": 1.0, "bedrooms": 0, "is_superhost": false, "lat": 40.75128, "lng": -73.97658, "localized_city": "New York", "listing_name": "Penthouse Studio East 50s Terrace", "person_capacity": 2, "reviews_count": 355, "room_type_category": "entire_home", "can_instant_book": true, "min_nights": 1, "max_nights": 1125, "months": 78},
{"listing_id": "17339881", "url": "https://www.airbnb.com/rooms/17339881", "price": 93.0, "bathrooms": 1.0, "bedrooms": 0, "is_superhost": false, "lat": 40.68469, "lng": -73.947, "localized_city": "Brooklyn", "listing_name": "Brownstone Studio", "person_capacity": 4, "reviews_count": 138, "room_type_category": "entire_home", "can_instant_book": true, "min_nights": 3, "max_nights": 29, "months": 30},
{"listing_id": "6438456", "url": "https://www.airbnb.com/rooms/6438456", "price": 60.0, "bathrooms": 1.0, "bedrooms": 1, "is_superhost": true, "lat": 40.69528, "lng": -73.93079, "localized_city": "Brooklyn", "listing_name": "Private! entire studio, own entrance, private bath", "person_capacity": 2, "reviews_count": 242, "room_type_category": "entire_home", "can_instant_book": true, "min_nights": 1, "max_nights": 1124, "months": 50},
{"listing_id": "858695", "url": "https://www.airbnb.com/rooms/858695", "price": 30.0, "bathrooms": 1.0, "bedrooms": 1, "is_superhost": false, "lat": 40.84058, "lng": -73.91382, "localized_city": "Bronx", "listing_name": "Very Large Private Room on quiet st", "person_capacity": 3, "reviews_count": 314, "room_type_category": "private_room", "can_instant_book": true, "min_nights": 2, "max_nights": 30, "months": 72},
{"listing_id": "9167889", "url": "https://www.airbnb.com/rooms/9167889", "price": 90.0, "bathrooms": 1.0, "bedrooms": 1, "is_superhost": false, "lat": 40.80843, "lng": -73.94125, "localized_city": "New York city", "listing_name": "A Unique studio apartment", "person_capacity": 3, "reviews_count": 247, "room_type_category": "entire_home", "can_instant_book": true, "min_nights": 2, "max_nights": 30, "months": 46},
{"listing_id": "24288869", "url": "https://www.airbnb.com/rooms/24288869", "price": 33.0, "bathrooms": 2.0, "bedrooms": 1, "is_superhost": false, "lat": 40.69928, "lng": -73.90616, "localized_city": "Queens", "listing_name": "Private Room+Beautiful Private Backyard Near City", "person_capacity": 3, "reviews_count": 99, "room_type_category": "private_room", "can_instant_book": true, "min_nights": 1, "max_nights": 25, "months": 19},
{"listing_id": "945297", "url": "https://www.airbnb.com/rooms/945297", "price": 67.0, "bathrooms": 1.0, "bedrooms": 1, "is_superhost": true, "lat": 40.72836, "lng": -73.98163, "localized_city": "New York", "listing_name": "East Village Gay Friendly Dbl Room", "person_capacity": 2, "reviews_count": 452, "room_type_category": "private_room", "can_instant_book": true, "min_nights": 1, "max_nights": 1125, "months": 79},
{"listing_id": "2062476", "url": "https://www.airbnb.com/rooms/2062476", "price": 23.0, "bathrooms": 1.5, "bedrooms": 1, "is_superhost": false, "lat": 40.70946, "lng": -74.07432, "localized_city": "Jersey City", "listing_name": "A room in private house - 20-35 minutes  from NYC", "person_capacity": 2, "reviews_count": 161, "room_type_category": "private_room", "can_instant_book": true, "min_nights": 1, "max_nights": 5, "months": 18},
{"listing_id": "903947", "url": "https://www.airbnb.com/rooms/903947", "price": 49.0, "bathrooms": 1.0, "bedrooms": 1, "is_superhost": false, "lat": 40.82124, "lng": -73.93838, "localized_city": "New York", "listing_name": "Beautiful Bedroom in Manhattan", "person_capacity": 2, "reviews_count": 623, "room_type_category": "private_room", "can_instant_book": true, "min_nights": 1, "max_nights": 28, "months": 75},
{"listing_id": "10748040", "url": "https://www.airbnb.com/rooms/10748040", "price": 50.0, "bathrooms": 1.0, "bedrooms": 1, "is_superhost": true, "lat": 40.82903, "lng": -73.94747, "localized_city": "New York", "listing_name": "On Broadway, clean & comfy room", "person_capacity": 1, "reviews_count": 145, "room_type_category": "private_room", "can_instant_book": true, "min_nights": 3, "max_nights": 1125, "months": 43},
{"listing_id": "4936023", "url": "https://www.airbnb.com/rooms/4936023", "price": 119.0, "bathrooms": 1.0, "bedrooms": 1, "is_superhost": false, "lat": 40.75462, "lng": -73.96869, "localized_city": "New York", "listing_name": "Nice studio in Midtown Manhattan", "person_capacity": 3, "reviews_count": 181, "room_type_category": "entire_home", "can_instant_book": true, "min_nights": 2, "max_nights": 1124, "months": 55},
{"listing_id": "7858468", "url": "https://www.airbnb.com/rooms/7858468", "price": 90.0, "bathrooms": 1.0, "bedrooms": 1, "is_superhost": true, "lat": 40.76425, "lng": -73.99162, "localized_city": "New York", "listing_name": "The Artist's Experience", "person_capacity": 1, "reviews_count": 344, "room_type_category": "private_room", "can_instant_book": true, "min_nights": 1, "max_nights": 10, "months": 50},
{"listing_id": "21620762", "url": "https://www.airbnb.com/rooms/21620762", "price": 120.0, "bathrooms": 1.0, "bedrooms": 1, "is_superhost": true, "lat": 40.78743, "lng": -73.95179, "localized_city": "New York", "listing_name": "1 Bedroom apartment", "person_capacity": 2, "reviews_count": 114, "room_type_category": "entire_home", "can_instant_book": true, "min_nights": 4, "max_nights": 1125, "months": 23},
{"listing_id": "17376200", "url": "https://www.airbnb.com/rooms/17376200", "price": 40.0, "bathrooms": 1.0, "bedrooms": 1, "is_superhost": false, "lat": 40.68469, "lng": -73.9375, "localized_city": "Brooklyn", "listing_name": "Nice clean room in Brooklyn", "person_capacity": 2, "reviews_count": 86, "room_type_category": "private_room", "can_instant_book": true, "min_nights": 5, "max_nights": 31, "months": 28},
{"listing_id": "14807332", "url": "https://www.airbnb.com/rooms/14807332", "price": 90.0, "bathrooms": 1.5, "bedrooms": 1, "is_superhost": false, "lat": 40.7658, "lng": -73.98795, "localized_city": "New York", "listing_name": "Duplex with Private Bathroom by Times Square", "person_capacity": 2, "reviews_count": 355, "room_type_category": "private_room", "can_instant_book": true, "min_nights": 1, "max_nights": 1125, "months": 33},
{"listing_id": "33035945", "url": "https://www.airbnb.com/rooms/33035945", "price": 74.0, "bathrooms": 1.0, "bedrooms": 0, "is_superhost": false, "lat": 40.76089, "lng": -73.98709, "localized_city": "New York", "listing_name": "Private hotel room in the heart of Times Square", "person_capacity": 2, "reviews_count": 68, "room_type_category": "private_room", "can_instant_book": true, "min_nights": 1, "max_nights": 1125, "months": 7},
{"listing_id": "4226098", "url": "https://www.airbnb.com/rooms/4226098", "price": 74.0, "bathrooms": 1.0, "bedrooms": 1, "is_superhost": false, "lat": 40.78883, "lng": -73.97616, "localized_city": "New York", "listing_name": "W. 80's Central Park 3 Blocks Walk", "person_capacity": 2, "reviews_count": 345, "room_type_category": "private_room", "can_instant_book": true, "min_nights": 1, "max_nights": 21, "months": 55},
{"listing_id": "31567374", "url": "https://www.airbnb.com/rooms/31567374", "price": 89.0, "bathrooms": 1.0, "bedrooms": 1, "is_superhost": true, "lat": 40.72161, "lng": -74.07392, "localized_city": "Jersey City", "listing_name": "Classic Brownstone Apt in a Historic Neighborhood", "person_capacity": 2, "reviews_count": 50, "room_type_category": "entire_home", "can_instant_book": true, "min_nights": 2, "max_nights": 1125, "months": 5},
{"listing_id": "15896529", "url": "https://www.airbnb.com/rooms/15896529", "price": 94.0, "bathrooms": 1.0, "bedrooms": 1, "is_superhost": false, "lat": 40.715763, "lng": -73.99012, "localized_city": "New York", "listing_name": "Bright room with private bathroom and rooftop", "person_capacity": 2, "reviews_count": 138, "room_type_category": "private_room", "can_instant_book": true, "min_nights": 6, "max_nights": 60, "months": 34},
{"listing_id": "4282178", "url": "https://www.airbnb.com/rooms/4282178", "price": 53.0, "bathrooms": 1.0, "bedrooms": 1, "is_superhost": false, "lat": 40.69724, "lng": -73.94914, "localized_city": "Brooklyn", "listing_name": "A Superhost SALE! DELUXE Room!", "person_capacity": 3, "reviews_count": 381, "room_type_category": "private_room", "can_instant_book": true, "min_nights": 1, "max_nights": 1125, "months": 53},
{"listing_id": "8254405", "url": "https://www.airbnb.com/rooms/8254405", "price": 19.0, "bathrooms": 1.0, "bedrooms": 1, "is_superhost": false, "lat": 40.82205, "lng": -73.9467, "localized_city": "New York", "listing_name": "Classic Harlem --- Economy Room", "person_capacity": 2, "reviews_count": 187, "room_type_category": "private_room", "can_instant_book": true, "min_nights": 1, "max_nights": 1125, "months": 49},
{"listing_id": "16912472", "url": "https://www.airbnb.com/rooms/16912472", "price": 70.0, "bathrooms": 1.0, "bedrooms": 1, "is_superhost": false, "lat": 40.72951, "lng": -73.98239, "localized_city": "New York", "listing_name": "Private East Village Bedroom &Roof Deck(manhattan)", "person_capacity": 2, "reviews_count": 238, "room_type_category": "private_room", "can_instant_book": true, "min_nights": 1, "max_nights": 1125, "months": 32},
{"listing_id": "19121954", "url": "https://www.airbnb.com/rooms/19121954", "price": 51.0, "bathrooms": 2.0, "bedrooms": 1, "is_superhost": false, "lat": 40.69117, "lng": -73.95643, "localized_city": "Brooklyn", "listing_name": "Central Location, 1 Block from Subway, Great Price", "person_capacity": 2, "reviews_count": 209, "room_type_category": "private_room", "can_instant_book": true, "min_nights": 1, "max_nights": 1125, "months": 23},
{"listing_id": "19638293", "url": "https://www.airbnb.com/rooms/19638293", "price": 69.0, "bathrooms": 1.0, "bedrooms": 0, "is_superhost": false, "lat": 40.77082, "lng": -74.01821, "localized_city": "Weehawken", "listing_name": "Studio Apartment Minutes Away from Times Square", "person_capacity": 2, "reviews_count": 166, "room_type_category": "entire_home", "can_instant_book": false, "min_nights": 1, "max_nights": 1125, "months": 25},
{"listing_id": "13584582", "url": "https://www.airbnb.com/rooms/13584582", "price": 90.0, "bathrooms": 1.0, "bedrooms": 1, "is_superhost": false, "lat": 40.75666, "lng": -73.99444, "localized_city": "New York", "listing_name": "Stylish Midtown Retreat", "person_capacity": 3, "reviews_count": 212, "room_type_category": "entire_home", "can_instant_book": true, "min_nights": 2, "max_nights": 100, "months": 31},
{"listing_id": "7542471", "url": "https://www.airbnb.com/rooms/7542471", "price": 65.0, "bathrooms": 1.0, "bedrooms": 1, "is_superhost": true, "lat": 40.77616, "lng": -74.01414, "localized_city": "Weehawken", "listing_name": "Luxe 1-Bedroom Flat Near Manhattan", "person_capacity": 4, "reviews_count": 282, "room_type_category": "entire_home", "can_instant_book": false, "min_nights": 1, "max_nights": 1125, "months": 45},
{"listing_id": "32676180", "url": "https://www.airbnb.com/rooms/32676180", "price": 104.0, "bathrooms": 1.0, "bedrooms": 1, "is_superhost": false, "lat": 40.748707, "lng": -73.991684, "localized_city": "New York", "listing_name": "Large Private Suite in the Heart of Midtown", "person_capacity": 4, "reviews_count": 74, "room_type_category": "hotel_room", "can_instant_book": true, "min_nights": 1, "max_nights": 1125, "months": 3},
{"listing_id": "20573006", "url": "https://www.airbnb.com/rooms/20573006", "price": 68.0, "bathrooms": 1.0, "bedrooms": 1, "is_superhost": false, "lat": 40.71465, "lng": -74.0753, "localized_city": "Jersey City", "listing_name": "Cute Quirky Garden apt, NYC adjacent", "person_capacity": 4, "reviews_count": 150, "room_type_category": "entire_home", "can_instant_book": false, "min_nights": 1, "max_nights": 90, "months": 21},
{"listing_id": "20194665", "url": "https://www.airbnb.com/rooms/20194665", "price": 39.0, "bathrooms": 1.0, "bedrooms": 1, "is_superhost": false, "lat": 40.78088, "lng": -73.90819, "localized_city": "Queens", "listing_name": "20min To Times Square, 10min LGA", "person_capacity": 2, "reviews_count": 210, "room_type_category": "private_room", "can_instant_book": true, "min_nights": 1, "max_nights": 1125, "months": 25},
{"listing_id": "11553403", "url": "https://www.airbnb.com/rooms/11553403", "price": 55.0, "bathrooms": 1.0, "bedrooms": 1, "is_superhost": false, "lat": 40.71815, "lng": -73.98937, "localized_city": "New York", "listing_name": "GREAT Bedroom in center of the Lower East Side!", "person_capacity": 2, "reviews_count": 282, "room_type_category": "private_room", "can_instant_book": true, "min_nights": 1, "max_nights": 22, "months": 37},
{"listing_id": "1217318", "url": "https://www.airbnb.com/rooms/1217318", "price": 55.0, "bathrooms": 1.0, "bedrooms": 1, "is_superhost": false, "lat": 40.71024, "lng": -73.9517, "localized_city": "Brooklyn", "listing_name": "Williamsburg Penthouse Hideaway", "person_capacity": 2, "reviews_count": 426, "room_type_category": "private_room", "can_instant_book": true, "min_nights": 1, "max_nights": 5, "months": 59},
{"listing_id": "986727", "url": "https://www.airbnb.com/rooms/986727", "price": 140.0, "bathrooms": 1.0, "bedrooms": 2, "is_superhost": false, "lat": 40.80626, "lng": -73.94009, "localized_city": "New York", "listing_name": "Manhattan's Best Deal!", "person_capacity": 6, "reviews_count": 312, "room_type_category": "entire_home", "can_instant_book": true, "min_nights": 3, "max_nights": 1125, "months": 78},
{"listing_id": "19179615", "url": "https://www.airbnb.com/rooms/19179615", "price": 58.0, "bathrooms": 2.0, "bedrooms": 1, "is_superhost": false, "lat": 40.6908, "lng": -73.95507, "localized_city": "Brooklyn", "listing_name": "HEART OF BROOKLYN, QUEEN BED, 1 BLOCK FROM SUBWAY!", "person_capacity": 2, "reviews_count": 234, "room_type_category": "private_room", "can_instant_book": true, "min_nights": 1, "max_nights": 1125, "months": 29},
{"listing_id": "21884206", "url": "https://www.airbnb.com/rooms/21884206", "price": 110.0, "bathrooms": 1.0, "bedrooms": 0, "is_superhost": true, "lat": 40.70426, "lng": -74.00711, "localized_city": "New York", "listing_name": "WeLive Wall Street -- Studio Apartment", "person_capacity": 2, "reviews_count": 186, "room_type_category": "hotel_room", "can_instant_book": true, "min_nights": 1, "max_nights": 28, "months": 22},
{"listing_id": "14070671", "url": "https://www.airbnb.com/rooms/14070671", "price": 55.0, "bathrooms": 1.0, "bedrooms": 2, "is_superhost": true, "lat": 40.75479, "lng": -73.85776, "localized_city": "Queens", "listing_name": "Independent Basement Apt.2 bed  rooms, 1 Bath.", "person_capacity": 6, "reviews_count": 208, "room_type_category": "entire_home", "can_instant_book": true, "min_nights": 2, "max_nights": 14, "months": 30},
{"listing_id": "12798739", "url": "https://www.airbnb.com/rooms/12798739", "price": 29.0, "bathrooms": 2.0, "bedrooms": 1, "is_superhost": false, "lat": 40.678509, "lng": -74.200249, "localized_city": "Elizabeth", "listing_name": "Good Deal! Cozy room Near NYC/EWR", "person_capacity": 2, "reviews_count": 474, "room_type_category": "private_room", "can_instant_book": true, "min_nights": 1, "max_nights": 1125, "months": 38},
{"listing_id": "29960687", "url": "https://www.airbnb.com/rooms/29960687", "price": 70.0, "bathrooms": 1.0, "bedrooms": 1, "is_superhost": true, "lat": 40.785152, "lng": -73.975304, "localized_city": "New York", "listing_name": "Upper West Side Apartment near Central Park", "person_capacity": 2, "reviews_count": 119, "room_type_category": "private_room", "can_instant_book": true, "min_nights": 1, "max_nights": 1125, "months": 12},
{"listing_id": "8070245", "url": "https://www.airbnb.com/rooms/8070245", "price": 40.0, "bathrooms": 1.0, "bedrooms": 1, "is_superhost": false, "lat": 40.72627, "lng": -74.04993, "localized_city": "Jersey City", "listing_name": "Beautiful room close to Manhattan", "person_capacity": 1, "reviews_count": 433, "room_type_category": "private_room", "can_instant_book": true, "min_nights": 1, "max_nights": 1125, "months": 44},
{"listing_id": "3513303", "url": "https://www.airbnb.com/rooms/3513303", "price": 70.0, "bathrooms": 1.0, "bedrooms": 1, "is_superhost": true, "lat": 40.70848, "lng": -73.95323, "localized_city": "Williamsburg Brooklyn", "listing_name": "Cute Room in Hip South Williamsburg", "person_capacity": 2, "reviews_count": 250, "room_type_category": "private_room", "can_instant_book": true, "min_nights": 3, "max_nights": 1125, "months": 60},
{"listing_id": "22971913", "url": "https://www.airbnb.com/rooms/22971913", "price": 65.0, "bathrooms": 1.0, "bedrooms": 1, "is_superhost": true, "lat": 40.66615, "lng": -73.95426, "localized_city": "Brooklyn", "listing_name": ".Melinda's Place", "person_capacity": 3, "reviews_count": 111, "room_type_category": "entire_home", "can_instant_book": true, "min_nights": 3, "max_nights": 7, "months": 18},
{"listing_id": "1497024", "url": "https://www.airbnb.com/rooms/1497024", "price": 27.0, "bathrooms": 2.0, "bedrooms": 2, "is_superhost": true, "lat": 40.82124, "lng": -73.94973, "localized_city": "New York", "listing_name": "NYC Brownstone 20 min to the 'American Dream Park'", "person_capacity": 6, "reviews_count": 305, "room_type_category": "entire_home", "can_instant_book": true, "min_nights": 2, "max_nights": 30, "months": 66},
{"listing_id": "15043534", "url": "https://www.airbnb.com/rooms/15043534", "price": 33.0, "bathrooms": 2.0, "bedrooms": 1, "is_superhost": false, "lat": 40.73912, "lng": -73.92075, "localized_city": "Woodside", "listing_name": "Private room in Sunnyside 2 46th St", "person_capacity": 2, "reviews_count": 207, "room_type_category": "private_room", "can_instant_book": true, "min_nights": 1, "max_nights": 180, "months": 38},
{"listing_id": "11187722", "url": "https://www.airbnb.com/rooms/11187722", "price": 95.0, "bathrooms": 1.0, "bedrooms": 1, "is_superhost": false, "lat": 40.75577, "lng": -73.99466, "localized_city": "New York", "listing_name": "Midtown Manhattan Hideaway", "person_capacity": 2, "reviews_count": 235, "room_type_category": "entire_home", "can_instant_book": false, "min_nights": 2, "max_nights": 40, "months": 36},
{"listing_id": "133025", "url": "https://www.airbnb.com/rooms/133025", "price": 68.0, "bathrooms": 1.0, "bedrooms": 1, "is_superhost": true, "lat": 40.7463, "lng": -73.97926, "localized_city": "New York", "listing_name": "Midtown cozy convenient", "person_capacity": 1, "reviews_count": 119, "room_type_category": "private_room", "can_instant_book": true, "min_nights": 4, "max_nights": 60, "months": 43},
{"listing_id": "35570888", "url": "https://www.airbnb.com/rooms/35570888", "price": 90.0, "bathrooms": 1.0, "bedrooms": 1, "is_superhost": false, "lat": 40.71716, "lng": -73.99462, "localized_city": "New York", "listing_name": "Leon Hotel, King, Vibrant indie boutique", "person_capacity": 2, "reviews_count": 14, "room_type_category": "hotel_room", "can_instant_book": true, "min_nights": 1, "max_nights": 1125, "months": 3},
{"listing_id": "577324", "url": "https://www.airbnb.com/rooms/577324", "price": 49.0, "bathrooms": 1.0, "bedrooms": 1, "is_superhost": false, "lat": 40.770302, "lng": -73.905563, "localized_city": "Astoria", "listing_name": "Clean Private Room Quick to Midtown and LGA!", "person_capacity": 2, "reviews_count": 209, "room_type_category": "private_room", "can_instant_book": true, "min_nights": 5, "max_nights": 120, "months": 65},
{"listing_id": "9590519", "url": "https://www.airbnb.com/rooms/9590519", "price": 120.0, "bathrooms": 1.0, "bedrooms": 1, "is_superhost": false, "lat": 40.75435, "lng": -73.96729, "localized_city": "New York", "listing_name": "Fun Spacious Midtown Apt near U.N. & Central Park", "person_capacity": 5, "reviews_count": 167, "room_type_category": "entire_home", "can_instant_book": true, "min_nights": 1, "max_nights": 30, "months": 36},
{"listing_id": "6037761", "url": "https://www.airbnb.com/rooms/6037761", "price": 89.0, "bathrooms": 1.0, "bedrooms": 1, "is_superhost": true, "lat": 40.727367, "lng": -73.989357, "localized_city": "New York", "listing_name": "Spacious Room in East Village/NoHo", "person_capacity": 3, "reviews_count": 428, "room_type_category": "private_room", "can_instant_book": true, "min_nights": 1, "max_nights": 20, "months": 49},
{"listing_id": "17992512", "url": "https://www.airbnb.com/rooms/17992512", "price": 56.0, "bathrooms": 1.0, "bedrooms": 1, "is_superhost": true, "lat": 40.62919, "lng": -74.08107, "localized_city": "Staten Island", "listing_name": "Charming Suite in Historic Home", "person_capacity": 4, "reviews_count": 214, "room_type_category": "entire_home", "can_instant_book": true, "min_nights": 1, "max_nights": 20, "months": 27},
{"listing_id": "21884096", "url": "https://www.airbnb.com/rooms/21884096", "price": 162.0, "bathrooms": 1.0, "bedrooms": 0, "is_superhost": true, "lat": 40.70394, "lng": -74.00589, "localized_city": "New York", "listing_name": "WeLive Wall Street -- Studio Double", "person_capacity": 3, "reviews_count": 549, "room_type_category": "hotel_room", "can_instant_book": true, "min_nights": 1, "max_nights": 28, "months": 17},
{"listing_id": "30737373", "url": "https://www.airbnb.com/rooms/30737373", "price": 60.0, "bathrooms": 1.0, "bedrooms": 2, "is_superhost": false, "lat": 40.77171, "lng": -74.02837, "localized_city": "Union City", "listing_name": "Cosy 2-bedroom apartment near Manhattan", "person_capacity": 4, "reviews_count": 47, "room_type_category": "entire_home", "can_instant_book": true, "min_nights": 2, "max_nights": 25, "months": 5},
{"listing_id": "32678721", "url": "https://www.airbnb.com/rooms/32678721", "price": 94.0, "bathrooms": 1.0, "bedrooms": 1, "is_superhost": false, "lat": 40.758762, "lng": -73.988464, "localized_city": "New York", "listing_name": "Nice Room 1 block away from Times Square action!", "person_capacity": 2, "reviews_count": 74, "room_type_category": "hotel_room", "can_instant_book": true, "min_nights": 1, "max_nights": 1125, "months": 4},
{"listing_id": "34489385", "url": "https://www.airbnb.com/rooms/34489385", "price": 80.0, "bathrooms": 1.0, "bedrooms": 1, "is_superhost": false, "lat": 40.762108, "lng": -73.982758, "localized_city": "New York", "listing_name": "Steps from Times Square and Central Park", "person_capacity": 2, "reviews_count": 11, "room_type_category": "hotel_room", "can_instant_book": true, "min_nights": 1, "max_nights": 1125, "months": 0},
{"listing_id": "22637100", "url": "https://www.airbnb.com/rooms/22637100", "price": 25.0, "bathrooms": 1.0, "bedrooms": 1, "is_superhost": true, "lat": 40.700329, "lng": -73.889832, "localized_city": "Queens", "listing_name": "Private room in Queens, Ny # 1", "person_capacity": 1, "reviews_count": 143, "room_type_category": "private_room", "can_instant_book": true, "min_nights": 1, "max_nights": 1125, "months": 19},
{"listing_id": "27598707", "url": "https://www.airbnb.com/rooms/27598707", "price": 84.0, "bathrooms": 1.0, "bedrooms": 1, "is_superhost": false, "lat": 40.740303, "lng": -73.985985, "localized_city": "New York", "listing_name": "Freehand New York - Artist Room", "person_capacity": 1, "reviews_count": 52, "room_type_category": "hotel_room", "can_instant_book": true, "min_nights": 1, "max_nights": 1125, "months": 14},
{"listing_id": "21244390", "url": "https://www.airbnb.com/rooms/21244390", "price": 60.0, "bathrooms": 1.0, "bedrooms": 1, "is_superhost": false, "lat": 40.75703, "lng": -73.99371, "localized_city": "New York", "listing_name": "Cozy room near Times Square", "person_capacity": 2, "reviews_count": 162, "room_type_category": "private_room", "can_instant_book": true, "min_nights": 1, "max_nights": 1125, "months": 24},
{"listing_id": "6958652", "url": "https://www.airbnb.com/rooms/6958652", "price": 55.0, "bathrooms": 1.0, "bedrooms": 1, "is_superhost": false, "lat": 40.68928, "lng": -73.93153, "localized_city": "Brooklyn", "listing_name": "Brooklyn Room Available [furnished]", "person_capacity": 2, "reviews_count": 44, "room_type_category": "private_room", "can_instant_book": true, "min_nights": 20, "max_nights": 100, "months": 27},
{"listing_id": "1056185", "url": "https://www.airbnb.com/rooms/1056185", "price": 51.0, "bathrooms": 1.0, "bedrooms": 1, "is_superhost": true, "lat": 40.64851, "lng": -73.94667, "localized_city": "Brooklyn", "listing_name": "Sunny+Cozy Double bedroom in BKLYN!", "person_capacity": 2, "reviews_count": 377, "room_type_category": "private_room", "can_instant_book": false, "min_nights": 1, "max_nights": 35, "months": 72},
{"listing_id": "19038815", "url": "https://www.airbnb.com/rooms/19038815", "price": 53.0, "bathrooms": 2.0, "bedrooms": 1, "is_superhost": false, "lat": 40.69144, "lng": -73.956, "localized_city": "Brooklyn", "listing_name": "1 Block from Subway, Central Location, Great Price", "person_capacity": 2, "reviews_count": 220, "room_type_category": "private_room", "can_instant_book": true, "min_nights": 1, "max_nights": 1125, "months": 26},
{"listing_id": "401039", "url": "https://www.airbnb.com/rooms/401039", "price": 27.0, "bathrooms": 1.0, "bedrooms": 1, "is_superhost": false, "lat": 40.84886, "lng": -73.91223, "localized_city": "Bronx", "listing_name": "Big and Comfy room near Yankee1", "person_capacity": 4, "reviews_count": 164, "room_type_category": "private_room", "can_instant_book": true, "min_nights": 3, "max_nights": 180, "months": 82},
{"listing_id": "4958223", "url": "https://www.airbnb.com/rooms/4958223", "price": 49.0, "bathrooms": 1.0, "bedrooms": 1, "is_superhost": false, "lat": 40.7962, "lng": -73.96156, "localized_city": "New York", "listing_name": "Beautiful Central Park View", "person_capacity": 2, "reviews_count": 310, "room_type_category": "private_room", "can_instant_book": false, "min_nights": 1, "max_nights": 1125, "months": 54},
{"listing_id": "8943358", "url": "https://www.airbnb.com/rooms/8943358", "price": 81.0, "bathrooms": 1.0, "bedrooms": 1, "is_superhost": false, "lat": 40.72476, "lng": -74.00387, "localized_city": "New York", "listing_name": "Loved by NYLocals Private Room SoHo", "person_capacity": 2, "reviews_count": 255, "room_type_category": "private_room", "can_instant_book": true, "min_nights": 1, "max_nights": 1125, "months": 42},
{"listing_id": "3799598", "url": "https://www.airbnb.com/rooms/3799598", "price": 100.0, "bathrooms": 1.0, "bedrooms": 2, "is_superhost": false, "lat": 40.72328, "lng": -73.98926, "localized_city": "New York", "listing_name": "\u2605Unique two bedroom on 2nd Avenue\u2605", "person_capacity": 5, "reviews_count": 326, "room_type_category": "entire_home", "can_instant_book": true, "min_nights": 1, "max_nights": 1125, "months": 53},
{"listing_id": "32844588", "url": "https://www.airbnb.com/rooms/32844588", "price": 119.0, "bathrooms": 1.0, "bedrooms": 1, "is_superhost": false, "lat": 40.76035, "lng": -73.98587, "localized_city": "New York", "listing_name": "2 Single Beds \u2605 Renovated \u2605 Next to Times Square", "person_capacity": 2, "reviews_count": 55, "room_type_category": "hotel_room", "can_instant_book": true, "min_nights": 1, "max_nights": 1125, "months": 6},
{"listing_id": "2310594", "url": "https://www.airbnb.com/rooms/2310594", "price": 85.0, "bathrooms": 1.0, "bedrooms": 0, "is_superhost": false, "lat": 40.70972, "lng": -73.93864, "localized_city": "Brooklyn", "listing_name": "Studio Apt. in East Williamsburg", "person_capacity": 3, "reviews_count": 224, "room_type_category": "entire_home", "can_instant_book": true, "min_nights": 4, "max_nights": 90, "months": 63},
{"listing_id": "23169714", "url": "https://www.airbnb.com/rooms/23169714", "price": 80.0, "bathrooms": 1.0, "bedrooms": 1, "is_superhost": true, "lat": 40.79523, "lng": -74.00388, "localized_city": "North Bergen", "listing_name": "MODERN CONDO MINUTES TO NYC **FREE PARKING**", "person_capacity": 4, "reviews_count": 194, "room_type_category": "entire_home", "can_instant_book": true, "min_nights": 2, "max_nights": 1125, "months": 21},
{"listing_id": "17711806", "url": "https://www.airbnb.com/rooms/17711806", "price": 50.0, "bathrooms": 1.5, "bedrooms": 1, "is_superhost": true, "lat": 40.6778, "lng": -73.9135, "localized_city": "Brooklyn", "listing_name": "Private Room & Private bathroom 2mins to subway!", "person_capacity": 4, "reviews_count": 176, "room_type_category": "private_room", "can_instant_book": true, "min_nights": 1, "max_nights": 1125, "months": 30},
{"listing_id": "21475999", "url": "https://www.airbnb.com/rooms/21475999", "price": 55.0, "bathrooms": 3.0, "bedrooms": 0, "is_superhost": false, "lat": 40.7497, "lng": -73.99515, "localized_city": "New York", "listing_name": "Single Cabins (Chelsea, Manhattan, NYC)", "person_capacity": 1, "reviews_count": 199, "room_type_category": "hotel_room", "can_instant_book": true, "min_nights": 1, "max_nights": 29, "months": 24},
{"listing_id": "8899476", "url": "https://www.airbnb.com/rooms/8899476", "price": 58.0, "bathrooms": 3.0, "bedrooms": 1, "is_superhost": true, "lat": 40.69699, "lng": -73.93387, "localized_city": "Brooklyn", "listing_name": "ENTIRE Floor,PRIVATE Bath&Entrance! SUPERHOST :))", "person_capacity": 4, "reviews_count": 306, "room_type_category": "private_room", "can_instant_book": false, "min_nights": 1, "max_nights": 1125, "months": 50},
{"listing_id": "7269771", "url": "https://www.airbnb.com/rooms/7269771", "price": 40.0, "bathrooms": 1.0, "bedrooms": 0, "is_superhost": false, "lat": 40.7305, "lng": -73.98043, "localized_city": "New York", "listing_name": "CLEAN COZY & COMFY E. VILLAGE PAD", "person_capacity": 2, "reviews_count": 169, "room_type_category": "entire_home", "can_instant_book": true, "min_nights": 1, "max_nights": 1125, "months": 50},
{"listing_id": "12136198", "url": "https://www.airbnb.com/rooms/12136198", "price": 99.0, "bathrooms": 1.0, "bedrooms": 1, "is_superhost": false, "lat": 40.74771, "lng": -73.98727, "localized_city": "New York", "listing_name": "5th ave/Broadway near Empire State", "person_capacity": 2, "reviews_count": 215, "room_type_category": "entire_home", "can_instant_book": true, "min_nights": 1, "max_nights": 1125, "months": 39},
{"listing_id": "26362", "url": "https://www.airbnb.com/rooms/26362", "price": 59.0, "bathrooms": 0.5, "bedrooms": 1, "is_superhost": false, "lat": 40.75527, "lng": -73.99291, "localized_city": "New York", "listing_name": "Times Square, Safe, Clean and Cozy!", "person_capacity": 1, "reviews_count": 358, "room_type_category": "private_room", "can_instant_book": false, "min_nights": 2, "max_nights": 25, "months": 87},
{"listing_id": "16146708", "url": "https://www.airbnb.com/rooms/16146708", "price": 57.0, "bathrooms": 1.0, "bedrooms": 1, "is_superhost": true, "lat": 40.81749, "lng": -73.94315, "localized_city": "New York", "listing_name": "Cozy Well-Furnished Home in the Heart of Harlem", "person_capacity": 2, "reviews_count": 160, "room_type_category": "private_room", "can_instant_book": true, "min_nights": 2, "max_nights": 30, "months": 33},
{"listing_id": "6093352", "url": "https://www.airbnb.com/rooms/6093352", "price": 45.0, "bathrooms": 1.0, "bedrooms": 1, "is_superhost": false, "lat": 40.7058, "lng": -73.93803, "localized_city": "Brooklyn", "listing_name": "Sunny Room 15min from Manhattan", "person_capacity": 3, "reviews_count": 301, "room_type_category": "private_room", "can_instant_book": true, "min_nights": 1, "max_nights": 1125, "months": 55},
{"listing_id": "17255880", "url": "https://www.airbnb.com/rooms/17255880", "price": 60.0, "bathrooms": 1.5, "bedrooms": 1, "is_superhost": true, "lat": 40.6752, "lng": -73.93215, "localized_city": "Brooklyn", "listing_name": "Modern Rooftop Loft W/ Private Ensuite & Cityviews", "person_capacity": 2, "reviews_count": 243, "room_type_category": "private_room", "can_instant_book": true, "min_nights": 1, "max_nights": 30, "months": 17},
{"listing_id": "63360", "url": "https://www.airbnb.com/rooms/63360", "price": 69.0, "bathrooms": 1.0, "bedrooms": 1, "is_superhost": true, "lat": 40.75384, "lng": -73.91433, "localized_city": "Queens", "listing_name": "Safe cute near subway& Manhattan NY NY retro style", "person_capacity": 5, "reviews_count": 458, "room_type_category": "entire_home", "can_instant_book": false, "min_nights": 5, "max_nights": 28, "months": 93},
{"listing_id": "25460977", "url": "https://www.airbnb.com/rooms/25460977", "price": 85.0, "bathrooms": 1.0, "bedrooms": 0, "is_superhost": true, "lat": 40.669701, "lng": -73.933342, "localized_city": "Brooklyn", "listing_name": "Fresh Studio in Brooklyn Townhouse", "person_capacity": 4, "reviews_count": 95, "room_type_category": "entire_home", "can_instant_book": false, "min_nights": 2, "max_nights": 1125, "months": 17},
{"listing_id": "769448", "url": "https://www.airbnb.com/rooms/769448", "price": 167.0, "bathrooms": 1.0, "bedrooms": 3, "is_superhost": false, "lat": 40.7179, "lng": -73.96107, "localized_city": "Brooklyn", "listing_name": "Bedford Loft, Williamsburg Prime", "person_capacity": 6, "reviews_count": 333, "room_type_category": "entire_home", "can_instant_book": true, "min_nights": 2, "max_nights": 31, "months": 61},
{"listing_id": "22615640", "url": "https://www.airbnb.com/rooms/22615640", "price": 35.0, "bathrooms": 1.0, "bedrooms": 1, "is_superhost": true, "lat": 40.79863, "lng": -74.00666, "localized_city": "North Bergen", "listing_name": "Attic Private Room", "person_capacity": 3, "reviews_count": 188, "room_type_category": "private_room", "can_instant_book": true, "min_nights": 1, "max_nights": 1125, "months": 21},
{"listing_id": "32676181", "url": "https://www.airbnb.com/rooms/32676181", "price": 119.0, "bathrooms": 1.0, "bedrooms": 1, "is_superhost": false, "lat": 40.748707, "lng": -73.991684, "localized_city": "New York", "listing_name": "Accessible Two Bedded Suite With Kitchen near MSG", "person_capacity": 4, "reviews_count": 55, "room_type_category": "hotel_room", "can_instant_book": true, "min_nights": 1, "max_nights": 1125, "months": 6},
{"listing_id": "14821603", "url": "https://www.airbnb.com/rooms/14821603", "price": 34.0, "bathrooms": 1.5, "bedrooms": 1, "is_superhost": false, "lat": 40.70033, "lng": -73.93127, "localized_city": "Brooklyn", "listing_name": "Convenient Bushwick Room for 1 or 2 Guests", "person_capacity": 2, "reviews_count": 132, "room_type_category": "private_room", "can_instant_book": true, "min_nights": 2, "max_nights": 20, "months": 29},
{"listing_id": "157673", "url": "https://www.airbnb.com/rooms/157673", "price": 60.0, "bathrooms": 1.0, "bedrooms": 1, "is_superhost": false, "lat": 40.68101, "lng": -73.94081, "localized_city": "Brooklyn", "listing_name": "Large  Loft Style  Studio  Space", "person_capacity": 4, "reviews_count": 88, "room_type_category": "entire_home", "can_instant_book": true, "min_nights": 31, "max_nights": 1125, "months": 85},
{"listing_id": "17941851", "url": "https://www.airbnb.com/rooms/17941851", "price": 60.0, "bathrooms": 1.0, "bedrooms": 1, "is_superhost": true, "lat": 40.6974, "lng": -73.92487, "localized_city": "Brooklyn ", "listing_name": "Tropical Getaway in Brooklyn at The Funky Loft", "person_capacity": 2, "reviews_count": 198, "room_type_category": "private_room", "can_instant_book": false, "min_nights": 3, "max_nights": 8, "months": 25},
{"listing_id": "442636", "url": "https://www.airbnb.com/rooms/442636", "price": 45.0, "bathrooms": 1.0, "bedrooms": 1, "is_superhost": true, "lat": 40.70054, "lng": -73.90255, "localized_city": "Queens", "listing_name": "Private,Affordable, 20 min to NYC!", "person_capacity": 5, "reviews_count": 313, "room_type_category": "entire_home", "can_instant_book": true, "min_nights": 3, "max_nights": 30, "months": 88},
{"listing_id": "657217", "url": "https://www.airbnb.com/rooms/657217", "price": 65.0, "bathrooms": 1.0, "bedrooms": 1, "is_superhost": false, "lat": 40.7779, "lng": -73.95246, "localized_city": "New York", "listing_name": "Prime location near Central Park !!", "person_capacity": 2, "reviews_count": 378, "room_type_category": "private_room", "can_instant_book": false, "min_nights": 1, "max_nights": 1125, "months": 78},
{"listing_id": "26250185", "url": "https://www.airbnb.com/rooms/26250185", "price": 159.0, "bathrooms": 1.0, "bedrooms": 0, "is_superhost": true, "lat": 40.706505, "lng": -74.007774, "localized_city": "New York", "listing_name": "LYRIC - NEW Hotel Studio Suite with Kitchen", "person_capacity": 2, "reviews_count": 91, "room_type_category": "entire_home", "can_instant_book": true, "min_nights": 1, "max_nights": 29, "months": 8},
{"listing_id": "16627548", "url": "https://www.airbnb.com/rooms/16627548", "price": 80.0, "bathrooms": 1.0, "bedrooms": 1, "is_superhost": false, "lat": 40.79798, "lng": -73.95052, "localized_city": "New York", "listing_name": "\"Desirable Deal on The Park\"", "person_capacity": 2, "reviews_count": 161, "room_type_category": "private_room", "can_instant_book": true, "min_nights": 1, "max_nights": 1125, "months": 34},
{"listing_id": "7160363", "url": "https://www.airbnb.com/rooms/7160363", "price": 33.0, "bathrooms": 1.0, "bedrooms": 1, "is_superhost": false, "lat": 40.79632, "lng": -73.96225, "localized_city": "New York", "listing_name": "LOVE Central Park Room Private Bath", "person_capacity": 2, "reviews_count": 254, "room_type_category": "private_room", "can_instant_book": false, "min_nights": 1, "max_nights": 1125, "months": 52},
{"listing_id": "24541899", "url": "https://www.airbnb.com/rooms/24541899", "price": 55.0, "bathrooms": 1.0, "bedrooms": 1, "is_superhost": true, "lat": 40.80565, "lng": -73.95197, "localized_city": "New York", "listing_name": "Clean and Comfortable Place to Rest in NYC!", "person_capacity": 2, "reviews_count": 96, "room_type_category": "private_room", "can_instant_book": true, "min_nights": 2, "max_nights": 29, "months": 15},
{"listing_id": "3895007", "url": "https://www.airbnb.com/rooms/3895007", "price": 55.0, "bathrooms": 1.0, "bedrooms": 1, "is_superhost": false, "lat": 40.77163, "lng": -74.03088, "localized_city": "Union City", "listing_name": "13 Minutes \u2764 of NYC Times Square!", "person_capacity": 3, "reviews_count": 182, "room_type_category": "entire_home", "can_instant_book": true, "min_nights": 3, "max_nights": 365, "months": 61},
{"listing_id": "2631224", "url": "https://www.airbnb.com/rooms/2631224", "price": 60.0, "bathrooms": 1.0, "bedrooms": 1, "is_superhost": true, "lat": 40.823326, "lng": -73.9459, "localized_city": "New York", "listing_name": "Tasteful Room in Charming Two Bedroom Apartment", "person_capacity": 1, "reviews_count": 251, "room_type_category": "private_room", "can_instant_book": false, "min_nights": 2, "max_nights": 29, "months": 54},
{"listing_id": "30293282", "url": "https://www.airbnb.com/rooms/30293282", "price": 40.0, "bathrooms": 1.0, "bedrooms": 1, "is_superhost": false, "lat": 40.67627, "lng": -73.90795, "localized_city": "Brooklyn", "listing_name": "It's a Delightful Day in Bed-Stuy!", "person_capacity": 2, "reviews_count": 95, "room_type_category": "private_room", "can_instant_book": true, "min_nights": 1, "max_nights": 15, "months": 12},
{"listing_id": "106363", "url": "https://www.airbnb.com/rooms/106363", "price": 56.0, "bathrooms": 1.5, "bedrooms": 1, "is_superhost": true, "lat": 40.82773, "lng": -73.95231, "localized_city": "New York", "listing_name": "Bright Room With A Great River View", "person_capacity": 1, "reviews_count": 406, "room_type_category": "private_room", "can_instant_book": false, "min_nights": 3, "max_nights": 30, "months": 91},
{"listing_id": "5192219", "url": "https://www.airbnb.com/rooms/5192219", "price": 27.0, "bathrooms": 1.0, "bedrooms": 1, "is_superhost": false, "lat": 40.82153, "lng": -73.94651, "localized_city": "New York", "listing_name": "Metro Retreat  - - Harlem", "person_capacity": 3, "reviews_count": 210, "room_type_category": "private_room", "can_instant_book": true, "min_nights": 1, "max_nights": 1125, "months": 53},
{"listing_id": "28616437", "url": "https://www.airbnb.com/rooms/28616437", "price": 49.0, "bathrooms": 1.0, "bedrooms": 0, "is_superhost": true, "lat": 40.70508, "lng": -74.09865, "localized_city": "Jersey City", "listing_name": "NYC/NJ - MODERN & PRIVATE STUDIO 15min- EWR", "person_capacity": 4, "reviews_count": 126, "room_type_category": "entire_home", "can_instant_book": true, "min_nights": 1, "max_nights": 28, "months": 3},
{"listing_id": "1802584", "url": "https://www.airbnb.com/rooms/1802584", "price": 55.0, "bathrooms": 1.0, "bedrooms": 1, "is_superhost": false, "lat": 40.73747, "lng": -73.9248, "localized_city": "Queens", "listing_name": "YOUR  PRIVATE COZY 1Br + 15min from Manhattan", "person_capacity": 3, "reviews_count": 119, "room_type_category": "entire_home", "can_instant_book": true, "min_nights": 1, "max_nights": 25, "months": 18},
{"listing_id": "3831", "url": "https://www.airbnb.com/rooms/3831", "price": 85.0, "bathrooms": 1.0, "bedrooms": 1, "is_superhost": false, "lat": 40.68514, "lng": -73.95976, "localized_city": "Brooklyn", "listing_name": "Cozy Entire Floor of Brownstone", "person_capacity": 3, "reviews_count": 298, "room_type_category": "entire_home", "can_instant_book": false, "min_nights": 1, "max_nights": 730, "months": 58},
{"listing_id": "23669328", "url": "https://www.airbnb.com/rooms/23669328", "price": 32.0, "bathrooms": 1.0, "bedrooms": 1, "is_superhost": false, "lat": 40.68754, "lng": -73.91411, "localized_city": "Brooklyn", "listing_name": "Private Bedroom in Apartment in Bushwick & Bedstuy", "person_capacity": 2, "reviews_count": 97, "room_type_category": "private_room", "can_instant_book": true, "min_nights": 1, "max_nights": 21, "months": 17},
{"listing_id": "16014791", "url": "https://www.airbnb.com/rooms/16014791", "price": 99.0, "bathrooms": 1.0, "bedrooms": 1, "is_superhost": false, "lat": 40.75536, "lng": -73.9995, "localized_city": "New York", "listing_name": "Clean style apt. Central midtwn near Javits", "person_capacity": 3, "reviews_count": 208, "room_type_category": "private_room", "can_instant_book": true, "min_nights": 1, "max_nights": 1125, "months": 33},
{"listing_id": "16202962", "url": "https://www.airbnb.com/rooms/16202962", "price": 40.0, "bathrooms": 1.0, "bedrooms": 1, "is_superhost": false, "lat": 40.74604, "lng": -73.9217, "localized_city": "Queens", "listing_name": "Stunning modern 1BR APT, 15min from grand central", "person_capacity": 4, "reviews_count": 115, "room_type_category": "entire_home", "can_instant_book": true, "min_nights": 2, "max_nights": 365, "months": 15},
{"listing_id": "6027345", "url": "https://www.airbnb.com/rooms/6027345", "price": 38.0, "bathrooms": 1.5, "bedrooms": 1, "is_superhost": true, "lat": 40.68242, "lng": -73.94774, "localized_city": "New York", "listing_name": "Newly renovated historic brownstone", "person_capacity": 2, "reviews_count": 309, "room_type_category": "private_room", "can_instant_book": true, "min_nights": 2, "max_nights": 12, "months": 53},
{"listing_id": "32922087", "url": "https://www.airbnb.com/rooms/32922087", "price": 42.0, "bathrooms": 1.0, "bedrooms": 1, "is_superhost": false, "lat": 40.84505, "lng": -73.93779, "localized_city": "New York", "listing_name": "Private Bedroom in Manhattan", "person_capacity": 2, "reviews_count": 59, "room_type_category": "private_room", "can_instant_book": true, "min_nights": 1, "max_nights": 1125, "months": 7},
{"listing_id": "19387402", "url": "https://www.airbnb.com/rooms/19387402", "price": 169.0, "bathrooms": 1.0, "bedrooms": 1, "is_superhost": false, "lat": 40.80369, "lng": -73.94857, "localized_city": "New York", "listing_name": "Luxury Central Park Apartment close to everything", "person_capacity": 4, "reviews_count": 160, "room_type_category": "entire_home", "can_instant_book": false, "min_nights": 1, "max_nights": 1125, "months": 27},
{"listing_id": "20356040", "url": "https://www.airbnb.com/rooms/20356040", "price": 50.0, "bathrooms": 1.0, "bedrooms": 1, "is_superhost": true, "lat": 40.78828, "lng": -73.94385, "localized_city": "New York", "listing_name": "Sunny Spacious room near central park", "person_capacity": 2, "reviews_count": 205, "room_type_category": "private_room", "can_instant_book": true, "min_nights": 1, "max_nights": 1125, "months": 25},
{"listing_id": "21738018", "url": "https://www.airbnb.com/rooms/21738018", "price": 135.0, "bathrooms": 1.0, "bedrooms": 0, "is_superhost": false, "lat": 40.76123, "lng": -73.99022, "localized_city": "New York", "listing_name": "2 Blocks from Times Square, Centrally Located!", "person_capacity": 5, "reviews_count": 210, "room_type_category": "entire_home", "can_instant_book": true, "min_nights": 1, "max_nights": 1125, "months": 23},
{"listing_id": "28227966", "url": "https://www.airbnb.com/rooms/28227966", "price": 32.0, "bathrooms": 1.0, "bedrooms": 1, "is_superhost": true, "lat": 40.65925, "lng": -73.89396, "localized_city": "Brooklyn", "listing_name": "Beautiful One Bed", "person_capacity": 3, "reviews_count": 75, "room_type_category": "private_room", "can_instant_book": true, "min_nights": 2, "max_nights": 6, "months": 13},
{"listing_id": "15220", "url": "https://www.airbnb.com/rooms/15220", "price": 79.0, "bathrooms": 0.5, "bedrooms": 1, "is_superhost": false, "lat": 40.75531, "lng": -73.99293, "localized_city": "New York", "listing_name": "Best Location in NYC! TIMES SQUARE!", "person_capacity": 1, "reviews_count": 312, "room_type_category": "private_room", "can_instant_book": false, "min_nights": 2, "max_nights": 29, "months": 100},
{"listing_id": "29820017", "url": "https://www.airbnb.com/rooms/29820017", "price": 149.0, "bathrooms": 1.0, "bedrooms": 1, "is_superhost": false, "lat": 40.73145, "lng": -74.00621, "localized_city": "New York", "listing_name": "Cozy Apt in the Heart of West Village", "person_capacity": 3, "reviews_count": 39, "room_type_category": "entire_home", "can_instant_book": true, "min_nights": 1, "max_nights": 1125, "months": 10},
{"listing_id": "19314589", "url": "https://www.airbnb.com/rooms/19314589", "price": 195.0, "bathrooms": 1.0, "bedrooms": 1, "is_superhost": true, "lat": 40.72408, "lng": -73.98297, "localized_city": "New York", "listing_name": "THE SMALL CHATEAU IN THE TREES", "person_capacity": 2, "reviews_count": 232, "room_type_category": "entire_home", "can_instant_book": true, "min_nights": 1, "max_nights": 1125, "months": 28},
{"listing_id": "17147561", "url": "https://www.airbnb.com/rooms/17147561", "price": 65.0, "bathrooms": 1.0, "bedrooms": 1, "is_superhost": false, "lat": 40.73109, "lng": -73.98234, "localized_city": "New York", "listing_name": "Best Location + Private Roof Deck", "person_capacity": 2, "reviews_count": 235, "room_type_category": "private_room", "can_instant_book": true, "min_nights": 1, "max_nights": 1125, "months": 30},
{"listing_id": "3659544", "url": "https://www.airbnb.com/rooms/3659544", "price": 69.0, "bathrooms": 1.5, "bedrooms": 1, "is_superhost": true, "lat": 40.765114, "lng": -73.994194, "localized_city": "New York", "listing_name": "Home Away from Home-Room in Midtown", "person_capacity": 2, "reviews_count": 188, "room_type_category": "private_room", "can_instant_book": true, "min_nights": 3, "max_nights": 21, "months": 62},
{"listing_id": "24515524", "url": "https://www.airbnb.com/rooms/24515524", "price": 99.0, "bathrooms": 1.0, "bedrooms": 2, "is_superhost": false, "lat": 40.68771, "lng": -73.92281, "localized_city": "Brooklyn", "listing_name": "Affordable Modern/Luxury 2 Bedroom Apt", "person_capacity": 4, "reviews_count": 99, "room_type_category": "entire_home", "can_instant_book": true, "min_nights": 2, "max_nights": 1125, "months": 16},
{"listing_id": "158955", "url": "https://www.airbnb.com/rooms/158955", "price": 129.0, "bathrooms": 1.0, "bedrooms": 2, "is_superhost": false, "lat": 40.70867, "lng": -73.94284, "localized_city": "Brooklyn", "listing_name": "PRIVATE and SUNNY Williamsburg Apt!", "person_capacity": 6, "reviews_count": 409, "room_type_category": "entire_home", "can_instant_book": true, "min_nights": 2, "max_nights": 365, "months": 86},
{"listing_id": "20121308", "url": "https://www.airbnb.com/rooms/20121308", "price": 73.0, "bathrooms": 1.0, "bedrooms": 1, "is_superhost": true, "lat": 40.78182, "lng": -73.97915, "localized_city": "New York", "listing_name": "Spacious room w/Private Roof Deck in Shared Apt", "person_capacity": 3, "reviews_count": 171, "room_type_category": "private_room", "can_instant_book": true, "min_nights": 1, "max_nights": 25, "months": 26},
{"listing_id": "10516381", "url": "https://www.airbnb.com/rooms/10516381", "price": 49.0, "bathrooms": 0.0, "bedrooms": 1, "is_superhost": false, "lat": 40.72286, "lng": -73.99471, "localized_city": "New York", "listing_name": "Original Cabin 22", "person_capacity": 1, "reviews_count": 86, "room_type_category": "private_room", "can_instant_book": true, "min_nights": 1, "max_nights": 1125, "months": 20},
{"listing_id": "18314102", "url": "https://www.airbnb.com/rooms/18314102", "price": 115.0, "bathrooms": 1.0, "bedrooms": 0, "is_superhost": false, "lat": 40.74769, "lng": -73.9784, "localized_city": "New York", "listing_name": "QUIET STUDIO IN THE CENTER OF MANHATTAN", "person_capacity": 4, "reviews_count": 181, "room_type_category": "entire_home", "can_instant_book": true, "min_nights": 1, "max_nights": 21, "months": 27},
{"listing_id": "20356506", "url": "https://www.airbnb.com/rooms/20356506", "price": 95.0, "bathrooms": 1.0, "bedrooms": 1, "is_superhost": true, "lat": 40.7658, "lng": -73.99087, "localized_city": "New York", "listing_name": "Beautiful Studio Right Next To Times Square!", "person_capacity": 2, "reviews_count": 143, "room_type_category": "entire_home", "can_instant_book": false, "min_nights": 2, "max_nights": 1125, "months": 23},
{"listing_id": "5892693", "url": "https://www.airbnb.com/rooms/5892693", "price": 71.0, "bathrooms": 1.0, "bedrooms": 0, "is_superhost": false, "lat": 40.72232, "lng": -73.9434, "localized_city": "Brooklyn", "listing_name": "Large, sunny, private studio Apt 2F", "person_capacity": 2, "reviews_count": 278, "room_type_category": "entire_home", "can_instant_book": true, "min_nights": 2, "max_nights": 30, "months": 54},
{"listing_id": "3476105", "url": "https://www.airbnb.com/rooms/3476105", "price": 73.0, "bathrooms": 1.0, "bedrooms": 1, "is_superhost": false, "lat": 40.68422, "lng": -73.95666, "localized_city": "Brooklyn", "listing_name": "Your own private big Brooklyn apt!", "person_capacity": 2, "reviews_count": 147, "room_type_category": "entire_home", "can_instant_book": false, "min_nights": 4, "max_nights": 90, "months": 46},
{"listing_id": "1399448", "url": "https://www.airbnb.com/rooms/1399448", "price": 100.0, "bathrooms": 1.0, "bedrooms": 1, "is_superhost": false, "lat": 40.72463, "lng": -73.98938, "localized_city": "New York", "listing_name": "\u2605HUGE beautiful E. Villager 2nd Av\u2605", "person_capacity": 5, "reviews_count": 342, "room_type_category": "entire_home", "can_instant_book": true, "min_nights": 1, "max_nights": 180, "months": 60},
{"listing_id": "31333074", "url": "https://www.airbnb.com/rooms/31333074", "price": 90.0, "bathrooms": 1.0, "bedrooms": 0, "is_superhost": true, "lat": 40.81438, "lng": -73.94782, "localized_city": "New York", "listing_name": "Miltons place", "person_capacity": 4, "reviews_count": 30, "room_type_category": "entire_home", "can_instant_book": true, "min_nights": 4, "max_nights": 14, "months": 8},
{"listing_id": "1983466", "url": "https://www.airbnb.com/rooms/1983466", "price": 65.0, "bathrooms": 1.0, "bedrooms": 1, "is_superhost": false, "lat": 40.80168, "lng": -73.96253, "localized_city": "New York", "listing_name": "A Cozy Creative Room for Nomads", "person_capacity": 1, "reviews_count": 288, "room_type_category": "private_room", "can_instant_book": true, "min_nights": 2, "max_nights": 30, "months": 71},
{"listing_id": "126443", "url": "https://www.airbnb.com/rooms/126443", "price": 268.0, "bathrooms": 2.0, "bedrooms": 2, "is_superhost": false, "lat": 40.72939, "lng": -73.98857, "localized_city": "New York", "listing_name": "\u2606Massive DUPLEX\u2606 2BR & 2BTH East Village 9+ Guests", "person_capacity": 9, "reviews_count": 377, "room_type_category": "entire_home", "can_instant_book": true, "min_nights": 2, "max_nights": 28, "months": 97},
{"listing_id": "9594995", "url": "https://www.airbnb.com/rooms/9594995", "price": 104.0, "bathrooms": 1.0, "bedrooms": 1, "is_superhost": true, "lat": 40.82458, "lng": -73.95038, "localized_city": "New York", "listing_name": "Beautiful private 1BR apt in Harlem", "person_capacity": 4, "reviews_count": 330, "room_type_category": "entire_home", "can_instant_book": false, "min_nights": 1, "max_nights": 1125, "months": 45},
{"listing_id": "14594286", "url": "https://www.airbnb.com/rooms/14594286", "price": 50.0, "bathrooms": 1.0, "bedrooms": 1, "is_superhost": true, "lat": 40.82957, "lng": -73.94535, "localized_city": "New York", "listing_name": "On Broadway & 3 stops to Times Square", "person_capacity": 1, "reviews_count": 110, "room_type_category": "private_room", "can_instant_book": true, "min_nights": 3, "max_nights": 17, "months": 37},
{"listing_id": "18076273", "url": "https://www.airbnb.com/rooms/18076273", "price": 65.0, "bathrooms": 1.0, "bedrooms": 1, "is_superhost": true, "lat": 40.7331, "lng": -73.95837, "localized_city": "Brooklyn", "listing_name": "Lovely & bright Brooklyn room close to train", "person_capacity": 1, "reviews_count": 66, "room_type_category": "private_room", "can_instant_book": true, "min_nights": 5, "max_nights": 30, "months": 28},
{"listing_id": "19204555", "url": "https://www.airbnb.com/rooms/19204555", "price": 38.0, "bathrooms": 1.0, "bedrooms": 1, "is_superhost": false, "lat": 40.76012, "lng": -73.9092, "localized_city": "Queens", "listing_name": "Bedroom in renovated apartment -Astoria", "person_capacity": 1, "reviews_count": 27, "room_type_category": "private_room", "can_instant_book": true, "min_nights": 5, "max_nights": 31, "months": 6},
{"listing_id": "2968070", "url": "https://www.airbnb.com/rooms/2968070", "price": 90.0, "bathrooms": 1.0, "bedrooms": 1, "is_superhost": true, "lat": 40.75971, "lng": -73.98979, "localized_city": "New York", "listing_name": "Near Times Square and Hell's Kitchen", "person_capacity": 3, "reviews_count": 414, "room_type_category": "private_room", "can_instant_book": true, "min_nights": 1, "max_nights": 29, "months": 65},
{"listing_id": "19567629", "url": "https://www.airbnb.com/rooms/19567629", "price": 70.0, "bathrooms": 1.0, "bedrooms": 1, "is_superhost": true, "lat": 40.72714, "lng": -73.98279, "localized_city": "New York", "listing_name": "East Village. Best Space/Location 1 Bdrm 1 Person", "person_capacity": 1, "reviews_count": 151, "room_type_category": "private_room", "can_instant_book": true, "min_nights": 1, "max_nights": 5, "months": 28},
{"listing_id": "21645526", "url": "https://www.airbnb.com/rooms/21645526", "price": 68.0, "bathrooms": 1.0, "bedrooms": 2, "is_superhost": false, "lat": 40.74564, "lng": -74.04415, "localized_city": "Jersey City", "listing_name": "The Webster", "person_capacity": 6, "reviews_count": 155, "room_type_category": "entire_home", "can_instant_book": true, "min_nights": 1, "max_nights": 22, "months": 19},
{"listing_id": "63299", "url": "https://www.airbnb.com/rooms/63299", "price": 59.0, "bathrooms": 1.0, "bedrooms": 1, "is_superhost": true, "lat": 40.707996, "lng": -73.952019, "localized_city": "Brooklyn", "listing_name": "BROOKLYN > Guest Room w/ Queen Bed in Williamsburg", "person_capacity": 1, "reviews_count": 206, "room_type_category": "private_room", "can_instant_book": true, "min_nights": 2, "max_nights": 31, "months": 49},
{"listing_id": "19734492", "url": "https://www.airbnb.com/rooms/19734492", "price": 57.0, "bathrooms": 1.5, "bedrooms": 1, "is_superhost": false, "lat": 40.654869, "lng": -73.914497, "localized_city": "Brooklyn", "listing_name": "Beautiful Modern Brooklyn Gem", "person_capacity": 4, "reviews_count": 238, "room_type_category": "entire_home", "can_instant_book": false, "min_nights": 1, "max_nights": 29, "months": 26},
{"listing_id": "21306417", "url": "https://www.airbnb.com/rooms/21306417", "price": 55.0, "bathrooms": 1.0, "bedrooms": 1, "is_superhost": false, "lat": 40.77099, "lng": -74.03275, "localized_city": "Union City", "listing_name": "NYC Times Square  13 Mins!", "person_capacity": 3, "reviews_count": 89, "room_type_category": "entire_home", "can_instant_book": true, "min_nights": 3, "max_nights": 365, "months": 23},
{"listing_id": "9675064", "url": "https://www.airbnb.com/rooms/9675064", "price": 90.0, "bathrooms": 1.0, "bedrooms": 2, "is_superhost": true, "lat": 40.63013, "lng": -73.90809, "localized_city": "Brooklyn", "listing_name": "Clean Quiet 2 Bedroom Apartment,  Private", "person_capacity": 4, "reviews_count": 238, "room_type_category": "entire_home", "can_instant_book": true, "min_nights": 2, "max_nights": 1125, "months": 44},
{"listing_id": "116940", "url": "https://www.airbnb.com/rooms/116940", "price": 80.0, "bathrooms": 1.0, "bedrooms": 1, "is_superhost": false, "lat": 40.67705, "lng": -73.94925, "localized_city": "Brooklyn", "listing_name": "ROOM WITH A  KITCHENETTE", "person_capacity": 2, "reviews_count": 242, "room_type_category": "entire_home", "can_instant_book": true, "min_nights": 3, "max_nights": 365, "months": 99},
{"listing_id": "31085213", "url": "https://www.airbnb.com/rooms/31085213", "price": 80.0, "bathrooms": 1.0, "bedrooms": 1, "is_superhost": false, "lat": 40.756, "lng": -73.99783, "localized_city": "New York", "listing_name": "NY MIDTOWN DOUBLE ROOM", "person_capacity": 2, "reviews_count": 30, "room_type_category": "hotel_room", "can_instant_book": true, "min_nights": 1, "max_nights": 14, "months": 9},
{"listing_id": "2119216", "url": "https://www.airbnb.com/rooms/2119216", "price": 80.0, "bathrooms": 1.0, "bedrooms": 0, "is_superhost": false, "lat": 40.82029, "lng": -73.93861, "localized_city": "New York", "listing_name": "Affordable, Private, Simple & Clean NYC Flat!", "person_capacity": 5, "reviews_count": 379, "room_type_category": "entire_home", "can_instant_book": true, "min_nights": 1, "max_nights": 28, "months": 68},
{"listing_id": "934418", "url": "https://www.airbnb.com/rooms/934418", "price": 65.0, "bathrooms": 1.0, "bedrooms": 1, "is_superhost": true, "lat": 40.77993, "lng": -74.01796, "localized_city": "Union City", "listing_name": "Cozy 1-Bedroom Flat near Manhattan", "person_capacity": 4, "reviews_count": 362, "room_type_category": "entire_home", "can_instant_book": false, "min_nights": 1, "max_nights": 30, "months": 66},
{"listing_id": "18602823", "url": "https://www.airbnb.com/rooms/18602823", "price": 27.0, "bathrooms": 2.0, "bedrooms": 1, "is_superhost": false, "lat": 40.678459, "lng": -74.200233, "localized_city": "Elizabeth", "listing_name": "Greatest Deal near EWR/NYC!", "person_capacity": 1, "reviews_count": 321, "room_type_category": "private_room", "can_instant_book": false, "min_nights": 1, "max_nights": 1125, "months": 27},
{"listing_id": "20933293", "url": "https://www.airbnb.com/rooms/20933293", "price": 63.0, "bathrooms": 1.0, "bedrooms": 1, "is_superhost": true, "lat": 40.76759, "lng": -73.92463, "localized_city": "Queens", "listing_name": "Cozy Moroccan 1BR APT in the heart of Astoria", "person_capacity": 2, "reviews_count": 176, "room_type_category": "private_room", "can_instant_book": true, "min_nights": 1, "max_nights": 14, "months": 23}
]